Site Ref,Project Site Reference,Site Type,Site Subtype,Site Geographic Feature,Site Name,Site full Name,Zone,Easting,Northing,Longitude,Latitude,Geographic Datum,"1:250,000 Map Index",GgStn Catchment Area (km2),Catchment,Estuary,BOM Rainfall District,Local Govt Authority,Locality,Department Region,Local Landmark Name,Groundwater Province,River Basin,Groundwater Area,Surfacewater Area,Site Comment,URL 
6160259,ARM,Surface (other),Sampling location,Estuary,Swan-Canning Estuary - Lwrswn - Arm,Armstrong Spit,50,387504,6458161,115.80895,-32.007069,GDA94,SH5014,N/A,SwanAvon_Lower Swan,Swan River,9 - Central Coast,,,,,Perth,616 - Swan Coastal,Perth,Swan River and Tributaries,,https://www.dropbox.com/s/syocvrbhzat5agd/ARM.jpg?dl=1
6163105,BAC,Surface (other),Sampling location,River/Stream,Canning River - Bacon St,Bacon St,50,398643.33,6456555.85,115.9267,-32.0226,GDA94,SH5014,N/A,SwanAvon_Canning River,,9 - Central Coast, CITY OF CANNING,WILSON,,,Perth,616 - Swan Coastal,Perth,Canning River,,https://www.dropbox.com/s/0s643bd93kfpai8/BAC.jpg?dl=1
6163447,BACD300,Surface (other),Sampling location,River/Stream,Canning River Bacon Street - Downstream 300M,Downstream 300M,50,398583.01,6456300.93,115.926034,-32.024894,GDA94,SH5014,N/A,SwanAvon_Canning River,,9 - Central Coast, CITY OF CANNING,FERNDALE,,,Perth,616 - Swan Coastal,Perth,Canning River,,https://www.dropbox.com/s/4h2fitwkq4h3vi5/BACD300.jpg?dl=1
6163441,BACD500,Surface (other),Sampling location,River/Stream,Canning River - Bacon Downstream,Bacon DS,50,398400.66,6456265.19,115.9241,-32.0252,GDA94,SH5014,N/A,SwanAvon_Canning River,Swan River,9 - Central Coast, CITY OF CANNING,FERNDALE,,,Perth,616 - Swan Coastal,Perth,Canning River,,https://www.dropbox.com/s/qelmut9l72sandf/BACD500.jpg?dl=1
6163442,BACU300,Surface (other),Sampling location,River/Stream,Canning River Bacon Street - Upstream 300M,Upstream 300M,50,398621.91,6456810.62,115.9265,-32.0203,GDA94,SH5014,N/A,SwanAvon_Canning River,,9 - Central Coast, CITY OF CANNING,WILSON,,,Perth,616 - Swan Coastal,Perth,Canning River,,https://www.dropbox.com/s/s11hgzs4ck5o9t2/BACU300.jpg?dl=1
6160258,BLA,Surface (other),Sampling location,Estuary,Swan-Canning Estuary - Lwrswn - Bla,Blackwall Reach,50,385172,6457020,115.784129,-32.017126,GDA94,SH5014,N/A,SwanAvon_Lower Swan,Swan River,9 - Central Coast,,,,,Perth,616 - Swan Coastal,Perth,Swan River and Tributaries,The blackwall reach site changed location from original coordinates e385081; n6456807 to those detailed in this form from 13/12/2010. The original site was a private mooring which swan river trust had an agreement to use.This mooring broke and was temporarily unavailable and it was then decided to permanently move the site location approximately 230m upstream to the swan river trust owned mooring. The new location is in a similar depth of water (15-16m) and is considered to be the same site with respect to data collection and analysis.  ,https://www.dropbox.com/s/p5dj6ou4ohkvgtd/BLA.jpg?dl=1
6162995,CASMID,Surface (other),Sampling location,Estuary,Swan-Cannins Estuarylwrcan - Castledare Mid,Castledare Mid,50,397599,6456555,115.915643,-32.022513,GDA94,SH5014,N/A,SwanAvon_Lower Swan,Swan River,9 - Central Coast, CITY OF CANNING,WILSON,,,Perth,616 - Swan Coastal,Perth,Swan River and Tributaries,Mid-channel from original cas (castledare) site  ,https://www.dropbox.com/s/9dwbkd7r9os98dh/CASMID.jpg?dl=1
6160118,CAV,Surface (other),Sampling location,River/Stream,Caversham Avenue Jetty - Unnamed,Unnamed,50,404687.3,6472636,115.992278,-31.878075,GDA94,SH5014,N/A,SwanAvon_Lower Swan,,9 - Central Coast, CITY OF SWAN,VIVEASH,,John George Walk Trail,Perth,616 - Swan Coastal,Swan,Swan River and Tributaries,,https://www.dropbox.com/s/lom65xiwui6axs3/CAV.jpg?dl=1
6163119,ELL,Surface (other),Sampling location,River/Stream,Canning River - Ellison Pde,Ellison Pde,50,400846.6,6455324.76,115.949901,-32.0339,GDA94,SH5014,N/A,SwanAvon_Canning River,,9 - Central Coast, CITY OF GOSNELLS,BECKENHAM,Swan-Avon,Yule Brook,Perth,616 - Swan Coastal,Perth,Canning River,,https://www.dropbox.com/s/0kzhbmvkxcln2qy/ELL.jpg?dl=1
6163124,GRE,Surface (other),Sampling location,River/Stream,Canning River - Greenfield St Bridge,Greenfield St Bridge,50,399251.01,6456529.94,115.933131,-32.022888,GDA94,SH5014,N/A,SwanAvon_Canning River,,9 - Central Coast, CITY OF CANNING,FERNDALE,,,Perth,616 - Swan Coastal,Perth,Canning River,,https://www.dropbox.com/s/5w5d9auk64nxrho/ELLISB.jpg?dl=1
6161869,HEA,Surface (other),Sampling location,Estuary,Swan-Canning Estuary - Lwrswn - Heathcote,Heathcote,50,389983,6459538,115.835349,-31.994892,GDA94,SH5014,N/A,SwanAvon_Lower Swan,Swan River,9 - Central Coast, CITY OF PERTH,CRAWLEY,,,Perth,616 - Swan Coastal,Perth,Swan River and Tributaries,,https://www.dropbox.com/s/gcq3wzlvz82ux61/HEA.jpg?dl=1
6163833,JBC,Surface (other),Sampling location,Estuary,Jane Brook - Confluence,Confluence,50,405656.13,6474493.45,116.0027,-31.8614,GDA94,SH5014,N/A,SwanAvon_Lower Swan,,9 - Central Coast, CITY OF SWAN,MIDDLE SWAN,Swan-Avon,Jane Brook,Perth,616 - Swan Coastal,Swan,Swan River and Tributaries,,https://www.dropbox.com/s/gz9uabe5e6ksip7/JBC.jpg?dl=1
6162994,KEN,Surface (other),Sampling location,River/Stream,Canning River Kent Street Weir - Weir U/S,Weir U/S,50,398104,6456676,115.921002,-32.021468,GDA94,SH5014,N/A,SwanAvon_Canning River,,9 - Central Coast, CITY OF CANNING,WILSON,,,Perth,616 - Swan Coastal,Perth,Canning River,"Mid-channel monitoring site ken was originally incorrectly added to the kent st weir downstream guaging station site 616094, it is now re-registered as its own mid channel site upstream of kent st weir.  ",https://www.dropbox.com/s/k1t3oerdtgi8auw/KEN.jpg?dl=1
6163455,KENU300,Surface (other),Sampling location,River/Stream,Canning River Kent Street Weir - Weir Upper 300M,Weir Upper 300M,50,398209.58,6456485.01,115.9221,-32.0232,GDA94,SH5014,N/A,SwanAvon_Canning River,,9 - Central Coast, CITY OF CANNING,FERNDALE,,,Perth,616 - Swan Coastal,Perth,Canning River,,https://www.dropbox.com/s/mq2xb43e975jy1y/KENU300.jpg?dl=1
6161821,KIN,Surface (other),Sampling location,Estuary,Swan River - Kingsley Rd,Kingsley Rd,50,401768,6468783,115.961026,-31.912582,GDA94,SH5014,N/A,SwanAvon_Lower Swan,Swan River,9 - Central Coast,,,,,Perth,616 - Swan Coastal,Perth,Swan River and Tributaries,,https://www.dropbox.com/s/n1hofgj9h743jzp/KIN.jpg?dl=1
6162045,KMO,Surface (other),Sampling location,Estuary,Swan-Canning Estuary - Kings Meadow Oval,Kings Meadow Oval,50,401966,6469695,115.963213,-31.904373,GDA94,SH5014,N/A,SwanAvon_Lower Swan,,9 - Central Coast,,,,Helena River,Perth,616 - Swan Coastal,Perth,Swan River and Tributaries,,https://www.dropbox.com/s/xip93g1wibn8og3/KMO.jpg?dl=1
6164391,KS7,Surface (other),Sampling location,River/Stream,Canning River - Ks7,Ks7,50,399454.74,6456311.96,115.935265,-32.024872,GDA94,SH5014,N/A,SwanAvon_Canning River,,9 - Central Coast, CITY OF CANNING,CANNINGTON,,,Perth,616 - Swan Coastal,Perth,Canning River,,https://www.dropbox.com/s/2k2crg84acnzwvx/KS7.jpg?dl=1
6164393,KS9,Surface (other),Sampling location,River/Stream,Canning River - Ks9,Ks9,50,400352.62,6455738.29,115.944713,-32.030126,GDA94,SH5014,N/A,SwanAvon_Canning River,,9 - Central Coast, CITY OF GOSNELLS,LANGFORD,,,Perth,616 - Swan Coastal,Perth,Canning River,,https://www.dropbox.com/s/x242edews17qpk6/KS9.jpg?dl=1
6167112,MACD50,Surface (other),Sampling location,River/Stream,Canning River - Machin Place Downstream 50m,MACD50,50,400808.41,6455357.63,115.9495,-32.0336,GDA94,SH5014,N/A,SwanAvon_Canning River,,9 - Central Coast, CITY OF GOSNELLS,LANGFORD,Swan-Avon,,Perth,616 - Swan Coastal,Perth,Canning River,Used for assessment of Nicholson Rd oxygenation plant  ,https://www.dropbox.com/s/jj11ua449kvg0f0/MACD50.jpg?dl=1
6164597,MASD50,Surface (other),Sampling location,River/Stream,Canning River - Masons Landing,Masons Landing,50,399670.14,6456225.3,115.937537,-32.025673,GDA94,SH5014,N/A,SwanAvon_Canning River,,9 - Central Coast, CITY OF CANNING,FERNDALE,,Masons Landing Park,Perth,616 - Swan Coastal,Perth,Canning River,,https://www.dropbox.com/s/xp7fxm9r7nzpbb1/MASD50.jpg?dl=1
6160764,MAY,Surface (other),Sampling location,Estuary,Maylands - Swimming Pool,Maylands Pool,50,396801,6465716,115.908173,-31.939807,GDA94,SH5014,N/A,SwanAvon_Lower Swan,Swan River,9 - Central Coast,,,,,Perth,616 - Swan Coastal,Perth,Swan River and Tributaries,,https://www.dropbox.com/s/8btkbhbd56107p2/MAY.jpg?dl=1
6167114,MEAD,Surface (other),Sampling location,River/Stream,Downstream Meadow Street Bridge,MEAD,50,402723.28,6470809.16,115.971332,-31.894387,GDA94,SH5014,N/A,SwanAvon_Lower Swan,,9 - Central Coast,,,,,Perth,616 - Swan Coastal,Swan,Swan River and Tributaries,,https://www.dropbox.com/s/t5o5aexsvu51l1e/MEAD.jpg?dl=1
6161086,MSB,Surface (other),Sampling location,Estuary,Swan River - Middle Swan Bridge,Middle Swan Bridge,50,406263,6474166,116.009083,-31.864404,GDA94,SH5014,N/A,SwanAvon_Lower Swan,,9 - Central Coast, CITY OF SWAN,MIDDLE SWAN,Swan-Avon,Whiteman Bridge,Perth,616 - Swan Coastal,Swan,Swan River and Tributaries,,https://www.dropbox.com/s/fql9qn1cxt6yj8f/MSB.jpg?dl=1
6160930,MULB,Surface (other),Sampling location,Estuary,Swan-Canning Estuary - Uprswn - Mulberry Farm,Mulberry Farm,50,403502.04,6471562.99,115.979641,-31.887654,GDA94,SH5014,N/A,SwanAvon_Lower Swan,,9 - Central Coast, CITY OF SWAN,GUILDFORD,,,Perth,616 - Swan Coastal,Swan,Swan River and Tributaries,,https://www.dropbox.com/s/l4stjfhi781pwll/MULB.jpg?dl=1
6160262,NAR,Surface (other),Sampling location,Estuary,Swan-Canning - Midswn - Nar,Narrows Bridge,50,391215,6463014,115.84878,-31.963657,GDA94,SH5014,N/A,SwanAvon_Lower Swan,Swan River,9 - Central Coast,,,,,Perth,616 - Swan Coastal,Perth,Swan River and Tributaries,,https://www.dropbox.com/s/col3d6gx8cec3g3/NAR.jpg?dl=1
6161836,NIC,Surface (other),Sampling location,River/Stream,Canning River - Nicholson Rd Bridge,Nicholson Rd Bridge,50,400105.41,6455783.15,115.9421,-32.0297,GDA94,SH5014,N/A,SwanAvon_Canning River,,9 - Central Coast, CITY OF GOSNELLS,LANGFORD,,,Perth,616 - Swan Coastal,Perth,Canning River,,https://www.dropbox.com/s/2maaiwnkzlog81y/NIC.jpg?dl=1
6163167,NICD200,Surface (other),Sampling location,River/Stream,Canning River - 200M Ds Nicholson Rd,200M Ds Nicholson Rd,50,399921.26,6455990.82,115.940172,-32.02781,GDA94,SH5014,N/A,SwanAvon_Canning River,,9 - Central Coast, CITY OF CANNING,FERNDALE,,,Perth,616 - Swan Coastal,Perth,Canning River,,https://www.dropbox.com/s/mrivwvzq0hczj6l/NICD200.jpg?dl=1
6160263,NIL,Surface (other),Sampling location,Estuary,Swan-Canning Estuary - Midswn - NIL,Nile Street,50,394660,6464027,115.885341,-31.954845,GDA94,SH5014,N/A,SwanAvon_Lower Swan,Swan River,9 - Central Coast, CITY OF PERTH,EAST PERTH,,Matagarup Bridge,Perth,616 - Swan Coastal,Perth,Swan River and Tributaries,,https://www.dropbox.com/s/de740c8dj3yj5ie/NIL.jpg?dl=1
6164568,PAC,Surface (other),Sampling location,River/Stream,Canning River - Deep Hole,Deep Hole,50,400496.99,6455513.5,115.946218,-32.032167,GDA94,SH5014,N/A,SwanAvon_Canning River,,9 - Central Coast, CITY OF GOSNELLS,BECKENHAM,Swan-Avon,,Perth,616 - Swan Coastal,Perth,Canning River,,https://www.dropbox.com/s/5vixz90ww59fy70/PAC.jpg?dl=1
6163414,PO2,Surface (other),Sampling location,River/Stream,Canning River - Bacon Upstream,Bacon US,50,398994.42,6456763.75,115.930439,-32.020756,GDA94,SH5014,N/A,SwanAvon_Canning River,,9 - Central Coast, CITY OF CANNING,CANNINGTON,,,Perth,616 - Swan Coastal,Perth,Canning River,,https://www.dropbox.com/s/51rhp5bk920u0im/PO2.jpg?dl=1
6163500,POL,Surface (other),Sampling location,Estuary,Upper Swan - Power Lines,Power Lines,50,404979.21,6475052.58,115.9956,-31.8563,GDA94,SH5014,N/A,SwanAvon_Lower Swan,,9 - Central Coast, CITY OF SWAN,MIDDLE SWAN,Swan-Avon,,Perth,616 - Swan Coastal,Swan,Swan River and Tributaries,,https://www.dropbox.com/s/646yv5x43d7xc9c/POL.jpg?dl=1
6160119,REG,Surface (other),Sampling location,Estuary,Swan-Canning Estuary - Uprswn - Reg Bond Park,Reg Bond Park,50,405311.69,6473712.4,115.998983,-31.868417,GDA94,SH5014,N/A,SwanAvon_Lower Swan,,9 - Central Coast, CITY OF SWAN,VIVEASH,Swan-Avon,,Perth,616 - Swan Coastal,Swan,Swan River and Tributaries,,https://www.dropbox.com/s/55javtzkk3kwy57/REG.jpg?dl=1
6161837,RIV,Surface (other),Sampling location,Estuary,Canning River - Riverton Bridge RIV,Riverton Bridge RIV,50,396239,6455988,115.901182,-32.027504,GDA94,SH5014,N/A,SwanAvon_Lower Swan,,9 - Central Coast,,,,Riverton Boat Ramp,Perth,616 - Swan Coastal,Perth,Swan River and Tributaries,,https://www.dropbox.com/s/zm4gfoazef6yiqg/RIV.jpg?dl=1
6161878,RON,Surface (other),Sampling location,Estuary,Ron Courtney Island - Unnamed,Ron Courtney Island ,50,399802,6467786,115.940132,-31.921404,GDA94,SH5014,N/A,SwanAvon_Lower Swan,Swan River,9 - Central Coast,,,,,Perth,616 - Swan Coastal,Perth,Swan River and Tributaries,,https://www.dropbox.com/s/wg7zvql4ngwrph5/RON.jpg?dl=1
6161838,SAL,Surface (other),Sampling location,Estuary,Canning River - Salter Point (SAL),Salter Point (SAL),50,393509,6455593,115.872233,-32.030813,GDA94,SH5014,N/A,SwanAvon_Lower Swan,Swan River,9 - Central Coast,,,,,Perth,616 - Swan Coastal,Perth,Swan River and Tributaries,,https://www.dropbox.com/s/jfbsr91grgjjkfz/SAL.jpg?dl=1
6163485,SANDBR,Surface (other),Sampling location,Estuary,Bayswater CSBP Investgations - Bwr10,Bwr10,50,400826,6467654,115.950949,-31.922684,GDA94,SH5014,N/A,SwanAvon_Lower Swan,Swan River,9 - Central Coast,,,,,Perth,616 - Swan Coastal,Perth,Swan River and Tributaries,,https://www.dropbox.com/s/r578uxh4gfja8eb/SANDBR.jpg?dl=1
6165318,SCB2,Surface (other),Sampling location,River/Stream,Swan-Canning Estuarylwrcan - Scb2,Scb2,50,391698,6457081,115.853225,-32.017219,GDA94,SH5014,N/A,SwanAvon_Lower Swan,Swan River,9 - Central Coast,,,,,Perth,616 - Swan Coastal,Perth,Swan River and Tributaries,,https://www.dropbox.com/s/zurjvf5j1v9si5e/SCB2.jpg?dl=1
6167188,SHELL,Surface (other),Sampling location,Estuary,Swan-Canning Estuary - Shelley Bridge Downstream,Shelley  Bridge,50,396251.01,6456511.61,115.901366,-32.022782,GDA94,SH5014,N/A,SwanAvon_Lower Swan,,9 - Central Coast,,,,Shelley Bridge,Perth,616 - Swan Coastal,Perth,Swan River and Tributaries,,https://www.dropbox.com/s/bzu1xphvqec4orn/SHELL.jpg?dl=1
6161870,STJ,Surface (other),Sampling location,Estuary,Swan-Canning Estuary - Midswn - Unnamed,St John’s Hospital,50,397308,6464439,115.9134,-31.951372,GDA94,SH5014,N/A,SwanAvon_Lower Swan,Swan River,9 - Central Coast,,,,,Perth,616 - Swan Coastal,Perth,Swan River and Tributaries,,https://www.dropbox.com/s/tyifihm25pawx17/STJ.jpg?dl=1
6161879,SUC,Surface (other),Sampling location,Estuary,Success Hill - Unnamed,Success Hill,50,401585,6470349,115.95925,-31.89844,GDA94,SH5014,N/A,SwanAvon_Lower Swan,,9 - Central Coast,,,,Fish Market Reserve,Perth,616 - Swan Coastal,Perth,Swan River and Tributaries,,https://www.dropbox.com/s/vyqpzcokwzh67v2/SUC.jpg?dl=1
6162300,VIT,Surface (other),Sampling location,Estuary,Swan River - Vitox Plant,Vitox Plant,50,401818,6470125,115.961691,-31.900481,GDA94,SH5014,N/A,SwanAvon_Lower Swan,,9 - Central Coast,,,,Guildford Road Bridge,Perth,616 - Swan Coastal,Perth,Swan River and Tributaries,,https://www.dropbox.com/s/jzf8bhdzg68v4nv/VIT.jpg?dl=1
6161854,WMP,Surface (other),Sampling location,Estuary,Swan River Phd - West Midland Pool,West Midland Pool,50,404439,6471549,115.989546,-31.887859,GDA94,SH5014,N/A,SwanAvon_Lower Swan,,9 - Central Coast, CITY OF SWAN,CAVERSHAM,,,Perth,616 - Swan Coastal,Swan,Swan River and Tributaries,,https://www.dropbox.com/s/y4log4qcne54ps8/WMP_2.jpg?dl=1
6162745,FP1,Surface (other),Sampling location,River/Stream,Fremantle Port - Site 1,Site 1,50,379663,6452491,115.725242,-32.057403,GDA94,SH5014,N/A,SwanAvon_Lower Swan,Swan River,,,,,,Perth,616 - Swan Coastal,Perth,,,
6162751,FP7,Surface (other),Sampling location,Estuary,Fremantle Port - Site 7,Site 7,50,382213,6454226,115.752462,-32.042023,GDA94,SH5014,N/A,SwanAvon_Lower Swan,Swan River,,,,,,Perth,616 - Swan Coastal,Perth,,,
6167240,FP2.2,Surface (other),Sampling location,River/Stream,Fremantle Port - FP2.2,FP2.2,50,380375.34,6453404.41,115.7329,-32.04924,GDA94,SH5014,N/A,SwanAvon_Lower Swan,Swan River,,,,,,Perth,616 - Swan Coastal,Perth,,,
6162330,FP2.1,Surface (other),Sampling location,River/Stream,Fremantle Port - FP2.1,FP2.1,50,380405.001,6453434.505,115.7332178,-32.04897176,GDA2020,SH5015,N/A,SwanAvon_Lower Swan,Swan River,,,,,,Perth,616 - Swan Coastal,Perth,,,
